insee,commune,departement,travail_insee,travail_commune,travail_departement,latitude,longitude,emplois,habitants,menages,pers_par_menages,unite_conso_menages,revenu_median,travail_latitude,travail_longitude,travail_emplois,distance_oiseau_km,distance_auto_km,duree_auto_minutes,distance_velo_km,duree_velo_minutes,2009,2014,2009_inter,2014_inter,2009_extra,2014_extra,2009_extra_travail_commune,extra_travail_commune_2014
34301,SETE,34,34003,AGDE,34,43.39177058,3.647051483,5065,44136,21930,43646,31558,17042,43.30912912,3.484479031,3307,16.0,17.6,21,19.3,88,13191,12945,8805,8847,4386,4098,162,173
34301,SETE,34,34024,BALARUC-LE-VIEUX,34,43.39177058,3.647051483,5065,44136,21930,43646,31558,17042,43.46597997,3.697133675,440,9.2,15.6,28,13.9,61,0,12945,0,8847,0,4098,0,100
34301,SETE,34,34032,BEZIERS,34,43.39177058,3.647051483,5065,44136,21930,43646,31558,17042,43.34758833,3.230767542,11336,34.0,41.8,44,45.3,211,13191,12945,8805,8847,4386,4098,198,205
34301,SETE,34,34172,MONTPELLIER,34,43.39177058,3.647051483,5065,44136,21930,43646,31558,17042,43.61344091,3.868516579,38976,30.4,37.8,59,39.6,170,13191,12945,8805,8847,4386,4098,1399,1301
34301,SETE,34,34157,MEZE,34,43.39177058,3.647051483,5065,44136,21930,43646,31558,17042,43.42929811,3.57774573,963,7.0,27.3,34,25.6,109,13191,0,8805,0,4386,0,114,0
34301,SETE,34,34108,FRONTIGNAN,34,43.39177058,3.647051483,5065,44136,21930,43646,31558,17042,43.44824589,3.749235224,2050,10.4,14.9,29,13.6,60,13191,12945,8805,8847,4386,4098,696,655
34301,SETE,34,34213,POUSSAN,34,43.39177058,3.647051483,5065,44136,21930,43646,31558,17042,43.49386827,3.660605263,494,11.4,21.0,37,18.0,79,13191,0,8805,0,4386,0,150,0
34301,SETE,34,34023,BALARUC-LES-BAINS,34,43.39177058,3.647051483,5065,44136,21930,43646,31558,17042,43.44690071,3.690720868,634,7.1,14.4,28,11.5,51,13191,12945,8805,8847,4386,4098,346,290
34301,SETE,34,34270,SAINT-JEAN-DE-VEDAS,34,43.39177058,3.647051483,5065,44136,21930,43646,31558,17042,43.57162823,3.83221848,3060,25.0,34.9,42,35.4,150,13191,0,8805,0,4386,0,129,0
34304,SOUBES,34,34142,LODEVE,34,43.7796057,3.352013685,83,911,367,857,582,19160,43.73073549,3.305676679,931,6.6,8.2,16,9.2,40,321,348,86,97,235,252,106,131
34307,SUSSARGUES,34,34172,MONTPELLIER,34,43.70901741,3.994510038,94,2649,1001,2699,1752,25264,43.61344091,3.868516579,38976,14.7,31.1,37,19.7,89,1064,1092,240,170,824,922,312,333
34309,TEYRAN,34,34057,CASTELNAU-LE-LEZ,34,43.68496022,3.92844546,310,4606,1802,4720,3120,26029,43.63802188,3.91265416,2901,5.4,10.2,19,6.7,30,1860,1971,372,435,1488,1536,105,105
34309,TEYRAN,34,34172,MONTPELLIER,34,43.68496022,3.92844546,310,4606,1802,4720,3120,26029,43.61344091,3.868516579,38976,9.3,13.2,29,12.6,54,1860,1971,372,435,1488,1536,794,745
34310,THEZAN-LES-BEZIERS,34,34032,BEZIERS,34,43.41329251,3.158108775,267,2921,1187,2826,1914,19482,43.34758833,3.230767542,11336,9.4,10.7,16,11.3,46,1044,1073,276,330,768,743,468,489
34311,TOURBES,34,34199,PEZENAS,34,43.44261287,3.373250632,74,1545,637,1514,1033,20411,43.46299017,3.416516521,1650,4.2,5.3,10,5.1,21,513,614,122,189,391,426,159,173
34312,LA TOUR-SUR-ORB,34,34028,BEDARIEUX,34,43.65552508,3.151444316,67,1271,572,1336,916,18860,43.61255691,3.166807872,826,4.9,7.8,14,7.8,40,495,435,126,80,369,355,126,145
34320,VAILHAUQUES,34,34172,MONTPELLIER,34,43.6641779,3.72842619,194,2619,904,2541,1625,23800,43.61344091,3.868516579,38976,12.6,17.6,26,14.9,71,1021,1197,165,265,856,932,521,562
34321,VALERGUES,34,34172,MONTPELLIER,34,43.67240395,4.05870784,98,2022,765,2035,1324,20753,43.61344091,3.868516579,38976,16.7,21.4,32,20.4,90,960,966,143,195,817,771,319,250
34322,VALFLAUNES,34,34172,MONTPELLIER,34,43.80200941,3.861882851,58,731,284,700,468,24137,43.61344091,3.868516579,38976,21.0,27.6,38,25.1,110,0,327,0,48,0,279,0,144
34324,VALRAS-PLAGE,34,34299,SERIGNAN,34,43.24761123,3.289294314,264,4227,2742,4887,3723,18276,43.27331853,3.297250833,601,2.9,4.9,10,4.8,21,0,1107,0,382,0,726,0,103
34324,VALRAS-PLAGE,34,34032,BEZIERS,34,43.24761123,3.289294314,264,4227,2742,4887,3723,18276,43.34758833,3.230767542,11336,12.1,15.6,21,15.9,67,1420,1107,518,382,903,726,446,269
34325,VALROS,34,34199,PEZENAS,34,43.41918943,3.361412597,73,1560,694,1678,1123,18629,43.46299017,3.416516521,1650,6.6,8.4,12,7.8,32,499,0,142,0,357,0,105,0
34325,VALROS,34,34032,BEZIERS,34,43.41918943,3.361412597,73,1560,694,1678,1123,18629,43.34758833,3.230767542,11336,13.2,15.0,17,17.6,73,0,604,0,137,0,467,0,113
34327,VENDARGUES,34,34172,MONTPELLIER,34,43.66104575,3.962830331,1607,6186,2522,6325,4204,21559,43.61344091,3.868516579,38976,9.3,13.6,26,11.8,55,2359,2721,534,668,1824,2053,859,979
34327,VENDARGUES,34,34240,SAINT-AUNES,34,43.66104575,3.962830331,1607,6186,2522,6325,4204,21559,43.63495138,3.965788184,1127,2.9,4.2,7,3.9,18,0,2721,0,668,0,2053,0,104
34327,VENDARGUES,34,34057,CASTELNAU-LE-LEZ,34,43.66104575,3.962830331,1607,6186,2522,6325,4204,21559,43.63802188,3.91265416,2901,4.8,6.2,13,6.9,30,2359,2721,534,668,1824,2053,112,129
34327,VENDARGUES,34,34154,MAUGUIO,34,43.66104575,3.962830331,1607,6186,2522,6325,4204,21559,43.59282795,4.004256933,3619,8.3,11.4,19,10.9,48,2359,2721,534,668,1824,2053,115,128
34328,VENDEMIAN,34,34172,MONTPELLIER,34,43.57905679,3.562534018,39,1054,444,1120,740,19816,43.61344091,3.868516579,38976,24.9,32.2,40,29.7,147,434,368,81,77,352,291,128,101
34329,VENDRES,34,34032,BEZIERS,34,43.25815194,3.227202602,588,2682,1114,2657,1790,18902,43.34758833,3.230767542,11336,10.0,13.0,22,14.5,65,780,1076,258,397,521,679,287,282
34332,VIAS,34,34032,BEZIERS,34,43.31311426,3.398897104,582,5531,2475,5668,3900,17524,43.34758833,3.230767542,11336,14.1,15.6,18,17.3,79,1665,1710,715,759,950,951,234,148
34332,VIAS,34,34003,AGDE,34,43.31311426,3.398897104,582,5531,2475,5668,3900,17524,43.30912912,3.484479031,3307,6.9,11.8,15,8.6,41,1665,1710,715,759,950,951,343,330
34333,VIC-LA-GARDIOLE,34,34172,MONTPELLIER,34,43.48626935,3.803428699,263,3155,1478,3240,2256,19764,43.61344091,3.868516579,38976,15.1,19.3,32,19.0,94,1404,1351,282,316,1121,1035,457,437
34333,VIC-LA-GARDIOLE,34,34301,SETE,34,43.48626935,3.803428699,263,3155,1478,3240,2256,19764,43.39177058,3.647051483,5065,16.4,22.1,34,22.0,99,1404,0,282,0,1121,0,103,0
34336,VILLENEUVE-LES-BEZIERS,34,34032,BEZIERS,34,43.317249,3.289584943,1191,4256,1861,4271,2927,18292,43.34758833,3.230767542,11336,5.8,8.2,17,8.3,35,1508,1753,488,580,1020,1173,588,653
34337,VILLENEUVE-LES-MAGUELONE,34,34129,LATTES,34,43.52497235,3.858462054,767,9577,3528,8723,5814,20541,43.56385941,3.902262229,3270,5.6,10.1,15,8.3,35,3604,3714,956,906,2648,2808,216,199
34337,VILLENEUVE-LES-MAGUELONE,34,34192,PALAVAS-LES-FLOTS,34,43.52497235,3.858462054,767,9577,3528,8723,5814,20541,43.53353646,3.926208396,713,5.5,10.5,14,7.7,32,3604,3714,956,906,2648,2808,148,113
34337,VILLENEUVE-LES-MAGUELONE,34,34270,SAINT-JEAN-DE-VEDAS,34,43.52497235,3.858462054,767,9577,3528,8723,5814,20541,43.57162823,3.83221848,3060,5.6,8.0,14,9.4,45,3604,0,956,0,2648,0,140,0
34337,VILLENEUVE-LES-MAGUELONE,34,34172,MONTPELLIER,34,43.52497235,3.858462054,767,9577,3528,8723,5814,20541,43.61344091,3.868516579,38976,9.9,15.6,27,13.3,62,3604,3714,956,906,2648,2808,1324,1495
34337,VILLENEUVE-LES-MAGUELONE,34,34198,PEROLS,34,43.52497235,3.858462054,767,9577,3528,8723,5814,20541,43.56066427,3.951757085,2360,8.5,14.6,22,13.1,54,3604,0,956,0,2648,0,100,0
34340,VILLETELLE,34,34172,MONTPELLIER,34,43.7241089,4.136888312,170,1463,509,1481,942,21827,43.61344091,3.868516579,38976,24.9,30.2,34,30.6,138,638,671,124,186,515,485,136,145
34340,VILLETELLE,34,34145,LUNEL,34,43.7241089,4.136888312,170,1463,509,1481,942,21827,43.68204818,4.135664723,2837,4.7,5.7,8,6.3,27,638,671,124,186,515,485,107,141
34341,VILLEVEYRAC,34,34172,MONTPELLIER,34,43.50012803,3.593729467,218,3768,1423,3719,2414,19124,43.61344091,3.868516579,38976,25.5,32.0,44,32.4,145,1118,1541,333,517,786,1024,160,243
34343,VIOLS-LE-FORT,34,34172,MONTPELLIER,34,43.7367573,3.692203246,98,1177,472,1139,766,20200,43.61344091,3.868516579,38976,19.7,27.7,33,25.0,112,459,541,129,151,330,390,181,175
34344,LA GRANDE-MOTTE,34,34172,MONTPELLIER,34,43.56853941,4.075832847,1092,8629,5837,9949,7717,20536,43.61344091,3.868516579,38976,17.4,26.4,34,23.9,102,2700,2662,1261,1292,1439,1370,573,543
46003,ALVIGNAC,46,46128,GRAMAT,46,44.83389759,1.685464728,67,718,321,726,501,19332,44.76356036,1.716204594,694,8.2,14.7,22,10.3,44,0,303,0,55,0,248,0,114
46007,ARCAMBAL,46,46042,CAHORS,46,44.45436983,1.547488981,49,1002,401,958,648,20866,44.45073709,1.440758378,4819,8.5,11.5,18,13.2,58,380,450,92,110,288,340,208,225
46015,BAGNAC-SUR-CELE,46,46102,FIGEAC,46,44.6622316,2.148871669,242,1531,661,1507,1038,18232,44.60553146,2.025403038,1925,11.6,14.8,17,17.3,77,615,566,256,213,359,353,157,172
46021,BEDUER,46,46102,FIGEAC,46,44.57110433,1.926664403,38,753,322,766,521,21346,44.60553146,2.025403038,1925,8.7,10.1,11,11.7,48,300,364,85,101,215,263,142,194
46038,BRETENOUX,46,46029,BIARS-SUR-CERE,46,44.91428944,1.842548767,212,1395,619,1302,926,19586,44.92819999,1.857058771,441,1.9,3.0,6,3.3,14,463,485,122,125,341,360,134,141
46042,CAHORS,46,46224,PRADINES,46,44.45073709,1.440758378,4819,19630,9791,19290,14041,19361,44.46460611,1.388493048,248,4.4,10.1,17,8.1,39,7663,7110,6197,5781,1466,1330,116,127
46042,CAHORS,46,46191,MERCUES,46,44.45073709,1.440758378,4819,19630,9791,19290,14041,19361,44.49791925,1.389475223,260,6.6,8.4,13,8.4,44,7663,7110,6197,5781,1466,1330,113,104
46046,CALAMANE,46,46042,CAHORS,46,44.51981223,1.410322727,6,463,190,448,305,20068,44.45073709,1.440758378,4819,8.1,11.3,16,11.9,57,208,185,32,25,176,160,108,105
46053,CAMBURAT,46,46102,FIGEAC,46,44.6443373,1.998569626,6,405,176,443,296,20530,44.60553146,2.025403038,1925,4.8,7.4,12,6.7,28,186,0,18,0,168,0,106,0
46055,CAPDENAC,46,46102,FIGEAC,46,44.58495369,2.067053095,213,1093,512,1151,800,21385,44.60553146,2.025403038,1925,4.0,5.9,10,5.7,24,440,390,86,106,353,285,197,142
46057,CARDAILLAC,46,46102,FIGEAC,46,44.68248828,2.013825744,22,595,253,585,401,19853,44.60553146,2.025403038,1925,8.6,12.3,22,11.6,48,0,188,0,30,0,158,0,104
46064,CATUS,46,46042,CAHORS,46,44.55841465,1.341510247,179,890,371,795,560,18245,44.45073709,1.440758378,4819,14.3,17.8,24,18.3,85,0,325,0,116,0,209,0,106
46070,CIEURAC,46,46042,CAHORS,46,44.37087509,1.498388893,21,504,205,531,346,20588,44.45073709,1.440758378,4819,10.0,19.2,23,13.1,55,0,210,0,15,0,195,0,115
46080,CRAYSSAC,46,46042,CAHORS,46,44.51676547,1.329944932,47,768,293,734,488,21807,44.45073709,1.440758378,4819,11.5,14.3,19,17.2,86,336,344,97,61,239,283,151,154
46088,DOUELLE,46,46042,CAHORS,46,44.47117073,1.355418993,30,819,392,847,595,21166,44.45073709,1.440758378,4819,7.1,12.5,21,10.1,53,320,405,58,76,262,329,162,208
46095,ESPERE,46,46042,CAHORS,46,44.51411846,1.37059321,48,996,411,984,667,19057,44.45073709,1.440758378,4819,9.0,10.5,16,11.3,61,401,452,60,64,341,388,225,256
46100,FAYCELLES,46,46102,FIGEAC,46,44.56566311,1.992284464,10,644,293,655,455,22442,44.60553146,2.025403038,1925,5.2,6.7,7,6.4,27,270,262,32,59,238,203,139,129
46102,FIGEAC,46,12052,CAPDENAC-GARE,12,44.60553146,2.025403038,1925,9820,4732,9128,6708,20304,44.55960956,2.0686393,631,6.2,12.5,16,9.6,44,3852,3623,2994,2773,858,851,137,120
46103,FLAUGNAC,46,46042,CAHORS,46,44.29106126,1.409147304,42,995,178,427,290,17664,44.45073709,1.440758378,4819,17.9,24.3,30,24.8,103,0,424,0,149,0,275,0,111
46105,FLAUJAC-POUJOLS,46,46042,CAHORS,46,44.41050691,1.498067368,35,712,320,779,527,22951,44.45073709,1.440758378,4819,6.4,8.6,16,8.1,36,368,312,58,49,310,263,244,186
46117,GAGNAC-SUR-CERE,46,46029,BIARS-SUR-CERE,46,44.93879667,1.884553645,72,684,326,712,501,20172,44.92819999,1.857058771,441,2.5,3.4,6,4.6,21,289,277,56,40,233,237,129,120
46132,ISSENDOLUS,46,46128,GRAMAT,46,44.73874236,1.779556883,7,508,220,504,347,19432,44.76356036,1.716204594,694,5.7,9.6,17,9.1,40,239,0,40,0,199,0,119,0
46137,LABASTIDE-MARNHAC,46,46042,CAHORS,46,44.38674263,1.389597618,34,1200,483,1255,822,21346,44.45073709,1.440758378,4819,8.2,11.1,19,10.3,43,560,530,96,120,464,410,340,275
46145,LACHAPELLE-AUZAC,46,46309,SOUILLAC,46,44.93800236,1.480311979,63,782,367,804,566,19795,44.90695316,1.463964828,786,3.7,9.7,18,9.0,36,347,325,133,123,215,202,125,158
46148,LALBENQUE,46,46042,CAHORS,46,44.33301643,1.564987278,143,1683,721,1669,1142,20613,44.45073709,1.440758378,4819,16.4,20.1,31,20.3,85,652,710,202,226,450,483,263,206
46149,LAMAGDELAINE,46,46042,CAHORS,46,44.47404462,1.501631363,55,725,322,733,508,21912,44.45073709,1.440758378,4819,5.5,8.4,13,8.4,34,358,288,65,51,293,237,224,160
46153,LANZAC,46,46309,SOUILLAC,46,44.86988873,1.469727649,6,612,262,602,417,19468,44.90695316,1.463964828,786,4.1,10.9,16,6.2,27,302,0,69,0,233,0,157,0
46156,LAROQUE-DES-ARCS,46,46042,CAHORS,46,44.48716546,1.470657805,54,513,236,513,362,20645,44.45073709,1.440758378,4819,4.7,6.1,10,6.0,25,238,225,35,31,204,195,158,143
46172,LHOSPITALET,46,46042,CAHORS,46,44.35361609,1.428072522,57,457,189,444,302,20862,44.45073709,1.440758378,4819,10.8,12.9,21,14.0,59,239,241,28,45,211,196,135,139
46175,LISSAC-ET-MOURET,46,46102,FIGEAC,46,44.62283584,1.971609485,46,925,383,916,626,21871,44.60553146,2.025403038,1925,4.7,7.3,12,6.5,30,432,365,56,75,376,290,232,200
46180,LUNAN,46,46102,FIGEAC,46,44.61070264,2.084246696,7,561,221,564,374,22508,44.60553146,2.025403038,1925,4.7,6.4,10,5.3,23,200,244,27,35,173,209,113,149
46182,LUZECH,46,46042,CAHORS,46,44.48575756,1.275968492,231,1747,731,1554,1103,19509,44.45073709,1.440758378,4819,13.6,21.5,29,18.3,92,599,665,293,367,305,298,114,142
46191,MERCUES,46,46042,CAHORS,46,44.49791925,1.389475223,260,1038,482,1064,736,19840,44.45073709,1.440758378,4819,6.6,8.3,13,8.5,45,392,387,102,82,290,305,208,160
46197,LE MONTAT,46,46042,CAHORS,46,44.38047153,1.454879168,191,1044,428,1070,715,22292,44.45073709,1.440758378,4819,7.9,9.0,15,13.5,55,460,485,88,130,372,355,268,245
46216,PAYRIGNAC,46,46127,GOURDON,46,44.76293371,1.343453319,35,694,311,719,495,19388,44.73479561,1.377127686,975,4.1,5.7,8,4.5,18,254,287,77,55,177,231,121,161
46220,PINSAC,46,46309,SOUILLAC,46,44.86105347,1.518731543,28,762,341,776,535,20103,44.90695316,1.463964828,786,6.7,9.2,16,8.5,37,270,259,68,65,203,194,103,110
46221,PLANIOLES,46,46102,FIGEAC,46,44.64200926,2.02813348,27,488,229,534,366,22718,44.60553146,2.025403038,1925,4.1,6.4,15,5.5,24,226,0,16,0,210,0,132,0
46224,PRADINES,46,46042,CAHORS,46,44.46460611,1.388493048,248,3433,1545,3542,2433,20812,44.45073709,1.440758378,4819,4.4,10.5,18,8.1,40,1376,1300,244,259,1132,1041,892,813
46225,PRAYSSAC,46,46042,CAHORS,46,44.51370239,1.187236392,340,2499,1224,2419,1774,19978,44.45073709,1.440758378,4819,21.3,29.3,37,30.1,140,685,0,321,0,364,0,114,0
46229,PUYBRUN,46,46029,BIARS-SUR-CERE,46,44.92139439,1.787241501,53,925,446,988,684,19923,44.92819999,1.857058771,441,5.6,6.4,11,6.8,29,0,330,0,53,0,277,0,135
46251,SAINT-CERE,46,46029,BIARS-SUR-CERE,46,44.85318277,1.892580454,663,3503,1834,3489,2584,19019,44.92819999,1.857058771,441,8.8,11.6,18,14.8,63,1274,1205,684,690,591,514,174,127
46273,SAINT-LAURENT-LES-TOURS,46,46251,SAINT-CERE,46,44.88174591,1.90434396,180,914,432,953,669,22036,44.85318277,1.892580454,663,3.3,3.9,7,3.8,17,404,0,104,0,300,0,108,0
46322,TRESPOUX-RASSIELS,46,46042,CAHORS,46,44.42153093,1.358342869,35,806,323,841,552,20860,44.45073709,1.440758378,4819,7.3,11.5,21,11.7,48,382,353,64,72,318,281,237,193
46327,VALROUFIE,46,46042,CAHORS,46,44.51355763,1.486956136,0,437,189,451,306,21456,44.45073709,1.440758378,4819,7.9,9.8,13,10.1,43,0,197,0,30,0,168,0,109
46334,LE VIGAN,46,46127,GOURDON,46,44.73947891,1.452395542,150,1551,674,1577,1077,19883,44.73479561,1.377127686,975,6.0,6.7,11,7.5,33,553,480,170,173,383,307,217,158
46340,SAINT-PIERRE-LAFEUILLE,46,46042,CAHORS,46,44.51747459,1.454545443,26,379,137,355,233,21911,44.45073709,1.440758378,4819,7.5,10.7,14,11.2,54,0,186,0,32,0,154,0,113
47001,AGEN,47,82072,GOLFECH,82,44.20281391,0.625583929,5937,34126,15873,29892,21910,17100,44.11002743,0.856994008,264,21.2,22.5,28,23.4,96,0,13405,0,8669,0,4735,0,105
48013,BADAROUX,48,48095,MENDE,48,44.53990342,3.554042836,43,955,414,1013,676,21864,44.52945086,3.480868812,3233,5.9,9.5,18,10.0,48,401,383,88,40,313,343,293,303
48016,BALSIEGES,48,48095,MENDE,48,44.47547476,3.44126914,38,541,226,552,369,22209,44.52945086,3.480868812,3233,6.8,9.8,13,11.2,55,247,239,28,61,219,178,170,105
48017,BANASSAC,48,48034,LA CANOURGUE,48,44.43254117,3.179087455,125,1044,406,870,613,19476,44.41937118,3.257118276,330,6.4,12.5,22,8.9,40,375,522,116,151,259,371,116,166
48018,BARJAC,48,48095,MENDE,48,44.52201897,3.409253303,18,744,295,718,476,20751,44.52945086,3.480868812,3233,5.7,10.4,16,9.3,51,301,348,40,37,261,312,173,197
48025,LES BESSONS,48,48140,SAINT-CHELY-D'APCHER,48,44.77338024,3.243440257,6,443,169,430,289,20975,44.81263635,3.275157615,947,5.0,7.6,12,7.1,30,220,224,48,20,172,204,108,134
48030,BRENOUX,48,48095,MENDE,48,44.48739611,3.53320154,9,374,148,377,248,20855,44.52945086,3.480868812,3233,6.3,10.0,17,9.0,39,184,0,30,0,154,0,109,0
48039,CHANAC,48,48095,MENDE,48,44.45022006,3.344579776,164,1461,565,1386,924,20509,44.52945086,3.480868812,3233,14.0,22.1,30,21.7,101,676,647,298,231,379,416,197,195
48042,CHASTEL-NOUVEL,48,48095,MENDE,48,44.57075321,3.492805984,60,810,319,871,560,22151,44.52945086,3.480868812,3233,4.7,9.1,13,7.0,31,348,406,36,76,312,329,280,296
48049,CHIRAC,48,48092,MARVEJOLS,48,44.54614485,3.235721333,0,0,421,1024,685,20495,44.55811819,3.287808867,1030,4.3,10.1,20,6.9,33,460,0,112,0,348,0,156,0
48050,COCURES,48,48061,FLORAC,48,44.35394567,3.619559721,43,478,88,204,141,19049,44.31620793,3.582735274,414,5.1,7.4,13,13.0,65,0,204,0,35,0,169,0,119
48075,ISPAGNAC,48,48061,FLORAC,48,44.3984529,3.531462906,93,880,381,783,560,19177,44.31620793,3.582735274,414,10.0,18.2,26,17.7,84,336,0,130,0,206,0,130,0
48081,LANUEJOLS,48,48095,MENDE,48,44.49046809,3.587854566,22,311,112,282,186,21781,44.52945086,3.480868812,3233,9.5,16.1,28,14.1,66,172,0,46,0,126,0,101,0
48092,MARVEJOLS,48,48049,CHIRAC,48,44.55811819,3.287808867,1030,4882,2170,4359,3148,19590,44.54614485,3.235721333,0,4.3,10.4,20,6.9,33,2064,0,1292,0,772,0,161,0
48092,MARVEJOLS,48,48095,MENDE,48,44.55811819,3.287808867,1030,4882,2170,4359,3148,19590,44.52945086,3.480868812,3233,15.6,29.3,33,23.2,119,2064,1925,1292,1289,772,635,188,149
48092,MARVEJOLS,48,48099,LE MONASTIER-PIN-MORIES,48,44.55811819,3.287808867,1030,4882,2170,4359,3148,19590,44.51093351,3.226530316,169,7.2,9.6,14,9.5,40,0,1925,0,1289,0,635,0,128
48092,MARVEJOLS,48,48103,MONTRODAT,48,44.55811819,3.287808867,1030,4882,2170,4359,3148,19590,44.55749728,3.329498887,157,3.3,5.9,11,5.5,24,2064,0,1292,0,772,0,104,0
48095,MENDE,48,48092,MARVEJOLS,48,44.52945086,3.480868812,3233,11542,5407,11473,8084,20451,44.55811819,3.287808867,1030,15.6,26.1,33,23.0,118,5437,4879,4729,4257,708,623,124,129
48099,LE MONASTIER-PIN-MORIES,48,48092,MARVEJOLS,48,44.51093351,3.226530316,169,2136,423,987,669,19639,44.55811819,3.287808867,1030,7.2,9.4,14,9.5,40,427,863,87,268,340,595,140,288
48103,MONTRODAT,48,48092,MARVEJOLS,48,44.55749728,3.329498887,157,1223,412,1099,712,21638,44.55811819,3.287808867,1030,3.3,5.6,10,5.3,23,493,425,164,110,328,315,163,150
48105,NAUSSAC,48,48080,LANGOGNE,48,44.75737397,3.800035654,21,349,92,208,144,19878,44.72374057,3.833631103,607,4.6,6.3,7,6.0,25,0,220,0,40,0,180,0,135
48127,RIEUTORT-DE-RANDON,48,48095,MENDE,48,44.62383532,3.488650495,71,774,305,703,477,18882,44.52945086,3.480868812,3233,10.5,18.2,23,15.0,71,0,324,0,111,0,214,0,127
48128,RIMEIZE,48,48140,SAINT-CHELY-D'APCHER,48,44.7646462,3.317192856,19,573,249,615,415,20154,44.81263635,3.275157615,947,6.3,8.9,12,7.3,30,319,0,65,0,253,0,135,0
48137,SAINT-BAUZILE,48,48095,MENDE,48,44.46907448,3.491438834,27,652,245,632,415,22328,44.52945086,3.480868812,3233,6.8,13.3,18,12.8,62,301,308,62,26,239,282,192,209
48140,SAINT-CHELY-D'APCHER,48,48132,SAINT-ALBAN-SUR-LIMAGNOLE,48,44.81263635,3.275157615,947,4169,1809,3653,2640,19710,44.79670871,3.403215373,171,10.3,25.4,29,16.8,78,0,1626,0,1169,0,457,0,103
48147,SAINT-ETIENNE-DU-VALDONNEZ,48,48095,MENDE,48,44.44205608,3.573739239,37,648,266,647,432,19106,44.52945086,3.480868812,3233,12.2,19.8,24,16.1,71,295,305,102,95,193,210,118,140
64238,GER,64,65440,TARBES,65,43.25409071,-0.059321018,87,1899,743,1917,1267,22287,43.23478596,0.066009394,7597,10.4,13.1,18,12.8,67,905,799,213,162,692,637,290,201
64445,PAU,64,65440,TARBES,65,43.32001898,-0.350337918,13183,77489,38021,69839,52091,19235,43.23478596,0.066009394,7597,35.0,43.1,38,43.7,196,30918,28251,19531,18231,11387,10019,275,389
64453,PONTACQ,64,65286,LOURDES,65,43.19832115,-0.103500734,280,2900,1152,2787,1875,20925,43.10742973,-0.076806939,2696,10.3,12.7,16,13.8,67,1108,1247,416,403,692,845,132,109
65002,ADE,65,65286,LOURDES,65,43.14158395,-0.026025566,63,798,338,797,544,20983,43.10742973,-0.076806939,2696,5.6,8.0,12,6.9,29,308,355,68,80,240,275,144,170
65007,ANDREST,65,65440,TARBES,65,43.31623238,0.066129231,67,1411,585,1433,963,20407,43.23478596,0.066009394,7597,9.1,13.0,17,11.1,49,568,548,82,50,487,498,183,226
65025,ARGELES-GAZOST,65,65286,LOURDES,65,43.00600167,-0.096362622,545,3020,1530,2992,2201,20057,43.10742973,-0.076806939,2696,11.4,16.5,21,16.8,71,1202,1065,539,449,663,616,162,153
65025,ARGELES-GAZOST,65,65286,LOURDES,65,43.00600167,-0.096362622,545,3020,1530,2992,2201,20057,43.10742973,-0.076806939,2696,11.4,16.5,21,16.8,68,1202,1065,539,449,663,616,162,153
65042,ASTE,65,65059,BAGNERES-DE-BIGORRE,65,43.0169757,0.216169123,10,544,244,565,387,19586,42.97586689,0.132640694,1385,8.2,14.3,35,17.2,101,244,219,32,77,211,142,118,101
65047,AUREILHAN,65,65226,IBOS,65,43.24970305,0.103640169,422,7879,3491,7704,5384,19287,43.2411379,0.000239711,1040,8.4,11.0,20,11.1,57,2901,3053,488,425,2413,2628,119,132
65047,AUREILHAN,65,65440,TARBES,65,43.24970305,0.103640169,422,7879,3491,7704,5384,19287,43.23478596,0.066009394,7597,3.5,4.9,15,5.0,24,2901,3053,488,425,2413,2628,1258,1372
65047,AUREILHAN,65,65417,SEMEAC,65,43.24970305,0.103640169,422,7879,3491,7704,5384,19287,43.22461698,0.109046031,718,2.8,3.8,10,3.7,16,2901,3053,488,425,2413,2628,143,122
65048,AURENSAN,65,65440,TARBES,65,43.30622008,0.095501209,13,783,306,785,519,20946,43.23478596,0.066009394,7597,8.3,13.4,18,10.2,44,300,328,28,51,272,278,110,121
65057,AZEREIX,65,65440,TARBES,65,43.2081735,-0.023809949,58,1003,405,987,668,21776,43.23478596,0.066009394,7597,7.9,11.0,18,9.6,45,421,451,53,71,368,380,144,132
65059,BAGNERES-DE-BIGORRE,65,65440,TARBES,65,42.97586689,0.132640694,1385,7602,3894,7299,5431,18422,43.23478596,0.066009394,7597,29.3,39.8,63,40.4,200,3057,2703,2065,1790,991,914,288,308
65062,BARBAZAN-DEBAT,65,65440,TARBES,65,43.20185197,0.129955187,218,3427,1436,3396,2317,21150,43.23478596,0.066009394,7597,6.3,8.7,17,8.6,41,1379,1364,152,155,1227,1209,592,623
65069,LA BARTHE-DE-NESTE,65,65258,LANNEMEZAN,65,43.07947598,0.382949945,78,1217,544,1200,837,20221,43.11706334,0.39353033,1266,4.3,5.6,8,6.1,31,452,445,76,80,376,365,156,165
65070,BARTRES,65,65286,LOURDES,65,43.13302362,-0.054658543,22,479,177,472,307,23595,43.10742973,-0.076806939,2696,3.4,6.8,12,4.8,20,0,181,0,21,0,160,0,103
65072,BAZET,65,65440,TARBES,65,43.29070009,0.075520125,186,1608,678,1641,1107,20128,43.23478596,0.066009394,7597,6.3,10.6,15,7.3,32,552,585,112,85,440,500,236,250
65080,BENAC,65,65440,TARBES,65,43.15289225,0.029619814,46,523,210,524,350,21541,43.23478596,0.066009394,7597,9.6,11.9,20,11.1,55,272,0,28,0,244,0,108,0
65083,BERNAC-DEBAT,65,65440,TARBES,65,43.16956722,0.110496542,25,670,262,674,447,23575,43.23478596,0.066009394,7597,8.1,11.6,19,10.4,45,288,325,24,40,264,285,124,110
65100,BORDERES-SUR-L'ECHEZ,65,65440,TARBES,65,43.26548492,0.042472573,482,4879,2097,5244,3468,18650,43.23478596,0.066009394,7597,3.9,5.9,12,5.0,23,1641,1800,310,393,1331,1407,765,720
65100,BORDERES-SUR-L'ECHEZ,65,65226,IBOS,65,43.26548492,0.042472573,482,4879,2097,5244,3468,18650,43.2411379,0.000239711,1040,4.4,5.6,7,5.7,30,0,1800,0,393,0,1407,0,123
65101,BORDES,65,65440,TARBES,65,43.19822125,0.214667029,25,759,301,746,494,20283,43.23478596,0.066009394,7597,12.7,27.6,30,17.4,92,302,323,34,76,267,247,118,106
65108,BOURS,65,65440,TARBES,65,43.27610967,0.090772444,58,780,329,825,552,21848,43.23478596,0.066009394,7597,5.0,10.1,15,6.8,30,316,365,40,70,276,295,144,150
65123,CAMPAN,65,65059,BAGNERES-DE-BIGORRE,65,42.96148837,0.21703129,116,1342,683,1450,1035,19605,42.97586689,0.132640694,1385,7.1,20.4,42,16.2,78,596,611,268,271,328,339,196,192
65127,CAPVERN,65,65258,LANNEMEZAN,65,43.10703809,0.331958446,187,1307,599,1253,891,20068,43.11706334,0.39353033,1266,5.1,34.8,27,7.2,51,506,530,197,206,309,324,132,150
65150,CLARENS,65,65258,LANNEMEZAN,65,43.15384181,0.412136264,7,504,210,514,346,23296,43.11706334,0.39353033,1266,4.4,6.4,9,5.5,23,0,221,0,28,0,193,0,113
65198,GERDE,65,65059,BAGNERES-DE-BIGORRE,65,43.05863797,0.177947426,17,1181,533,1165,824,21745,42.97586689,0.132640694,1385,9.9,17.7,39,16.3,91,417,401,51,72,366,329,189,164
65223,HORGUES,65,65440,TARBES,65,43.18930861,0.080194189,31,1163,478,1214,809,26198,43.23478596,0.066009394,7597,5.2,7.0,14,7.4,35,544,515,52,54,492,461,290,221
65226,IBOS,65,65440,TARBES,65,43.2411379,0.000239711,1040,2877,1097,2624,1778,22175,43.23478596,0.066009394,7597,5.4,5.7,9,6.8,30,1068,1188,252,270,816,918,428,459
65235,JUILLAN,65,65440,TARBES,65,43.19967732,0.022806403,512,4104,1710,4185,2819,22017,43.23478596,0.066009394,7597,5.2,6.6,13,6.6,31,1628,1580,312,416,1316,1164,692,535
65235,JUILLAN,65,65286,LOURDES,65,43.19967732,0.022806403,512,4104,1710,4185,2819,22017,43.10742973,-0.076806939,2696,13.1,16.9,21,15.6,69,1628,1580,312,416,1316,1164,144,110
65244,LAGARDE,65,65440,TARBES,65,43.30403303,0.021169626,7,503,205,547,358,20602,43.23478596,0.066009394,7597,8.5,12.4,20,10.4,55,242,239,20,21,221,218,115,118
65251,LALOUBERE,65,65440,TARBES,65,43.20908319,0.076177072,246,1923,778,1871,1265,21734,43.23478596,0.066009394,7597,3.0,4.6,10,4.3,21,815,824,141,126,674,698,355,389
65257,LANNE,65,65440,TARBES,65,43.16265362,0.001931802,147,579,213,539,359,22768,43.23478596,0.066009394,7597,9.6,14.4,18,11.0,50,0,285,0,35,0,250,0,115
65258,LANNEMEZAN,65,65440,TARBES,65,43.11706334,0.39353033,1266,5912,2702,5199,3818,18422,43.23478596,0.066009394,7597,29.6,48.5,41,38.2,215,2012,0,1393,0,619,0,112,0
65284,LOUEY,65,65440,TARBES,65,43.17910752,0.019602368,142,969,417,1047,702,22793,43.23478596,0.066009394,7597,7.2,8.5,14,8.2,39,429,429,72,80,357,350,136,179
65286,LOURDES,65,65440,TARBES,65,43.10742973,-0.076806939,2696,14361,7413,14319,10528,17623,43.23478596,0.066009394,7597,18.3,24.9,30,21.4,93,5284,4639,3770,3322,1514,1317,375,361
65286,LOURDES,65,65025,ARGELES-GAZOST,65,43.10742973,-0.076806939,2696,14361,7413,14319,10528,17623,43.00600167,-0.096362622,545,11.4,18.6,21,16.8,70,5284,0,3770,0,1514,0,117,0
65304,MAUBOURGUET,65,65440,TARBES,65,43.46885616,0.044250934,415,2450,1074,2244,1598,17820,43.23478596,0.066009394,7597,26.1,32.0,37,30.2,129,860,0,476,0,384,0,112,0
65313,MOMERES,65,65440,TARBES,65,43.17437174,0.081379411,30,735,297,783,513,23757,43.23478596,0.066009394,7597,6.8,8.9,17,8.9,40,303,336,59,34,244,302,122,151
65331,ODOS,65,65440,TARBES,65,43.1944739,0.055711226,303,3219,1367,3332,2257,23515,43.23478596,0.066009394,7597,4.6,6.6,14,5.4,26,1285,1319,159,187,1125,1131,587,559
65340,ORLEIX,65,65440,TARBES,65,43.27628288,0.117396047,120,2066,812,2118,1393,20005,43.23478596,0.066009394,7597,6.2,12.2,18,7.9,36,708,786,113,142,595,645,284,317
65344,OSSUN,65,65440,TARBES,65,43.17861842,-0.042800571,131,2326,941,2277,1536,20537,43.23478596,0.066009394,7597,10.8,14.4,23,12.9,60,972,1038,175,221,797,817,289,290
65344,OSSUN,65,65286,LOURDES,65,43.17861842,-0.042800571,131,2326,941,2277,1536,20537,43.10742973,-0.076806939,2696,8.4,14.0,22,12.0,55,972,1038,175,221,797,817,175,137
65350,OURSBELILLE,65,65440,TARBES,65,43.28634572,0.036493806,29,1224,487,1193,810,21349,43.23478596,0.066009394,7597,6.2,9.2,15,7.2,32,480,477,52,64,428,413,218,136
65366,POUEYFERRE,65,65286,LOURDES,65,43.11943835,-0.081331351,26,878,345,865,580,20125,43.10742973,-0.076806939,2696,1.4,3.0,7,2.1,9,366,349,85,46,281,302,150,174
65369,POUYASTRUC,65,65440,TARBES,65,43.26804587,0.171366695,58,716,271,701,461,21990,43.23478596,0.066009394,7597,9.3,12.3,23,12.5,54,290,316,53,85,237,231,102,110
65370,POUZAC,65,65059,BAGNERES-DE-BIGORRE,65,43.08098685,0.129487371,114,1122,509,1139,801,21113,42.97586689,0.132640694,1385,11.7,19.1,43,20.3,109,436,454,92,100,344,354,196,180
65375,RABASTENS-DE-BIGORRE,65,65440,TARBES,65,43.38596696,0.156153625,172,1478,619,1373,948,17500,43.23478596,0.066009394,7597,18.3,24.3,29,22.5,103,0,532,0,208,0,324,0,144
65389,SAINT-LAURENT-DE-NESTE,65,65258,LANNEMEZAN,65,43.09201509,0.480853075,140,925,398,894,623,21443,43.11706334,0.39353033,1266,7.6,9.4,14,9.4,39,0,346,0,75,0,271,0,100
65395,SAINT-PE-DE-BIGORRE,65,65286,LOURDES,65,43.0842866,-0.15755287,100,1187,510,1119,783,19350,43.10742973,-0.076806939,2696,7.0,11.1,22,12.0,54,0,409,0,96,0,313,0,131
65401,SALLES-ADOUR,65,65440,TARBES,65,43.18675977,0.101493603,13,544,216,567,369,21849,43.23478596,0.066009394,7597,6.1,9.1,15,8.2,37,0,279,0,39,0,241,0,101
65410,SARROUILLES,65,65440,TARBES,65,43.23151956,0.130295391,10,542,225,524,363,22887,43.23478596,0.066009394,7597,5.2,7.7,17,7.5,35,280,0,49,0,231,0,120,0
65417,SEMEAC,65,65440,TARBES,65,43.22461698,0.109046031,718,4803,2248,4943,3465,20785,43.23478596,0.066009394,7597,3.7,4.9,13,5.1,24,1864,1827,362,378,1502,1449,798,835
65433,SOUES,65,65440,TARBES,65,43.20560907,0.099489736,126,3049,1352,3077,2126,19904,43.23478596,0.066009394,7597,4.2,7.4,14,5.9,27,1269,1211,188,120,1081,1091,529,495
65440,TARBES,65,65258,LANNEMEZAN,65,43.23478596,0.066009394,7597,40900,21780,39876,29674,17098,43.11706334,0.39353033,1266,29.6,47.3,38,37.0,211,0,12902,0,8337,0,4565,0,106
65440,TARBES,65,65460,VIC-EN-BIGORRE,65,43.23478596,0.066009394,7597,40900,21780,39876,29674,17098,43.39107088,0.055473477,789,17.4,22.8,28,19.8,87,15405,12902,10058,8337,5347,4565,113,110
65440,TARBES,65,65331,ODOS,65,43.23478596,0.066009394,7597,40900,21780,39876,29674,17098,43.1944739,0.055711226,303,4.6,5.3,13,5.3,24,0,12902,0,8337,0,4565,0,155
65440,TARBES,65,65059,BAGNERES-DE-BIGORRE,65,43.23478596,0.066009394,7597,40900,21780,39876,29674,17098,42.97586689,0.132640694,1385,29.3,38.3,66,40.1,198,15405,12902,10058,8337,5347,4565,144,135
65440,TARBES,65,64445,PAU,64,43.23478596,0.066009394,7597,40900,21780,39876,29674,17098,43.32001898,-0.350337918,13183,35.0,42.1,34,43.4,187,15405,12902,10058,8337,5347,4565,259,326
65440,TARBES,65,65286,LOURDES,65,43.23478596,0.066009394,7597,40900,21780,39876,29674,17098,43.10742973,-0.076806939,2696,18.3,23.4,28,21.4,99,15405,12902,10058,8337,5347,4565,465,370
65440,TARBES,65,65047,AUREILHAN,65,43.23478596,0.066009394,7597,40900,21780,39876,29674,17098,43.24970305,0.103640169,422,3.5,4.8,15,5.4,26,15405,12902,10058,8337,5347,4565,198,175
65440,TARBES,65,65284,LOUEY,65,43.23478596,0.066009394,7597,40900,21780,39876,29674,17098,43.17910752,0.019602368,142,7.2,8.5,15,8.2,45,15405,12902,10058,8337,5347,4565,136,190
65440,TARBES,65,65235,JUILLAN,65,43.23478596,0.066009394,7597,40900,21780,39876,29674,17098,43.19967732,0.022806403,512,5.2,6.5,14,6.1,35,15405,12902,10058,8337,5347,4565,403,237
65440,TARBES,65,65100,BORDERES-SUR-L'ECHEZ,65,43.23478596,0.066009394,7597,40900,21780,39876,29674,17098,43.26548492,0.042472573,482,3.9,4.7,11,4.8,22,15405,12902,10058,8337,5347,4565,301,208
65440,TARBES,65,65344,OSSUN,65,43.23478596,0.066009394,7597,40900,21780,39876,29674,17098,43.17861842,-0.042800571,131,10.8,12.7,21,13.0,65,15405,0,10058,0,5347,0,137,0
65440,TARBES,65,65304,MAUBOURGUET,65,43.23478596,0.066009394,7597,40900,21780,39876,29674,17098,43.46885616,0.044250934,415,26.1,32.4,37,30.2,130,15405,0,10058,0,5347,0,181,0
65440,TARBES,65,65226,IBOS,65,43.23478596,0.066009394,7597,40900,21780,39876,29674,17098,43.2411379,0.000239711,1040,5.4,5.6,9,6.6,29,15405,12902,10058,8337,5347,4565,461,428
65440,TARBES,65,65251,LALOUBERE,65,43.23478596,0.066009394,7597,40900,21780,39876,29674,17098,43.20908319,0.076177072,246,3.0,3.7,10,4.6,21,15405,0,10058,0,5347,0,132,0
65440,TARBES,65,65417,SEMEAC,65,43.23478596,0.066009394,7597,40900,21780,39876,29674,17098,43.22461698,0.109046031,718,3.7,4.5,14,4.6,22,15405,12902,10058,8337,5347,4565,494,313
65447,TOURNAY,65,65440,TARBES,65,43.18571911,0.247816208,212,1377,596,1279,896,19584,43.23478596,0.066009394,7597,15.7,28.2,27,20.6,106,464,508,186,182,277,326,112,120
65460,VIC-EN-BIGORRE,65,65304,MAUBOURGUET,65,43.39107088,0.055473477,789,5004,2196,4658,3305,18743,43.46885616,0.044250934,415,8.7,10.8,15,11.3,46,1954,1683,884,790,1071,893,118,112
65460,VIC-EN-BIGORRE,65,65440,TARBES,65,43.39107088,0.055473477,789,5004,2196,4658,3305,18743,43.23478596,0.066009394,7597,17.4,24.4,28,19.7,87,1954,1683,884,790,1071,893,313,304
66002,ALENYA,66,66136,PERPIGNAN,66,42.64070195,2.981454851,248,3419,1415,3489,2332,18990,42.69659541,2.89936954,20249,9.1,15.1,19,10.1,44,1239,1324,281,245,958,1079,403,464
66008,ARGELES-SUR-MER,66,66136,PERPIGNAN,66,42.53521935,3.024298629,1689,10279,5679,11392,8260,18555,42.69659541,2.89936954,20249,20.7,23.7,26,26.4,111,3152,2950,1788,1760,1364,1191,536,443
66008,ARGELES-SUR-MER,66,66053,COLLIOURE,66,42.53521935,3.024298629,1689,10279,5679,11392,8260,18555,42.51301073,3.072541215,407,4.7,8.4,14,8.0,34,3152,0,1788,0,1364,0,100,0
66009,ARLES-SUR-TECH,66,66003,AMELIE-LES-BAINS-PALALDA,66,42.44981866,2.626324542,265,2690,1233,2599,1844,17656,42.44368591,2.683384321,334,4.7,14.7,28,11.5,57,908,902,405,455,503,447,280,177
66009,ARLES-SUR-TECH,66,66136,PERPIGNAN,66,42.44981866,2.626324542,265,2690,1233,2599,1844,17656,42.69659541,2.89936954,20249,35.4,49.0,60,51.5,270,0,902,0,455,0,447,0,101
66011,BAGES,66,66136,PERPIGNAN,66,42.60738515,2.888569697,182,4033,1879,4269,2936,18979,42.69659541,2.89936954,20249,10.0,13.9,21,11.9,52,1387,1570,324,343,1063,1228,515,568
66012,BAHO,66,66136,PERPIGNAN,66,42.70578415,2.820665887,124,3201,1253,3128,2091,19216,42.69659541,2.89936954,20249,6.5,10.5,18,8.2,38,1318,1238,210,200,1108,1039,642,609
66012,BAHO,66,66172,SAINT-ESTEVE,66,42.70578415,2.820665887,124,3201,1253,3128,2091,19216,42.71511222,2.846119142,1362,2.3,4.1,9,3.4,17,1318,1238,210,200,1108,1039,177,150
66014,BAIXAS,66,66136,PERPIGNAN,66,42.74542753,2.805697872,121,2568,1099,2555,1748,17512,42.69659541,2.89936954,20249,9.4,11.4,21,11.8,50,928,1074,276,252,652,822,361,424
66015,BANYULS-DELS-ASPRES,66,66136,PERPIGNAN,66,42.56515338,2.866365492,67,1255,550,1321,894,17971,42.69659541,2.89936954,20249,14.9,17.3,25,18.3,78,509,459,108,128,401,331,172,152
66016,BANYULS-SUR-MER,66,66048,CERBERE,66,42.46147503,3.099896538,485,4767,2172,4165,3081,19220,42.44390766,3.148355007,177,4.4,15.4,32,11.7,52,1475,0,980,0,494,0,108,0
66016,BANYULS-SUR-MER,66,66136,PERPIGNAN,66,42.46147503,3.099896538,485,4767,2172,4165,3081,19220,42.69659541,2.89936954,20249,30.9,41.0,47,45.7,200,1475,1505,980,1026,494,479,113,123
66017,LE BARCARES,66,66136,PERPIGNAN,66,42.8127711,3.028341251,552,4717,2911,5143,3936,18208,42.69659541,2.89936954,20249,16.7,24.6,24,21.7,102,1069,1269,462,603,607,666,231,193
66020,BOLQUERE,66,66124,FONT-ROMEU-ODEILLO-VIA,66,42.52211947,2.065188242,146,799,384,819,576,19965,42.5132425,2.026977001,554,3.3,6.3,12,4.5,23,404,400,160,165,244,235,176,130
66021,BOMPAS,66,66136,PERPIGNAN,66,42.7286936,2.942280685,453,7004,2869,6869,4679,19088,42.69659541,2.89936954,20249,5.0,6.7,11,6.9,30,2719,2483,576,616,2143,1867,1399,1166
66024,LE BOULOU,66,66049,CERET,66,42.52635812,2.831577066,715,5573,2680,5654,4004,17942,42.47396221,2.752680215,923,8.7,13.7,23,12.2,56,0,1795,0,777,0,1018,0,140
66024,LE BOULOU,66,66136,PERPIGNAN,66,42.52635812,2.831577066,715,5573,2680,5654,4004,17942,42.69659541,2.89936954,20249,19.7,21.8,28,24.5,105,1840,1795,908,777,932,1018,336,373
66025,BOURG-MADAME,66,0,hors-france,0,42.43799713,1.960908153,229,1201,491,1087,750,17300,0.0,0.0,0,0.0,-0.0,0,-0.0,0,504,525,212,260,292,265,144,110
66026,BROUILLA,66,66136,PERPIGNAN,66,42.57459223,2.895429214,40,1254,522,1295,864,18690,42.69659541,2.89936954,20249,13.6,17.9,27,16.6,70,375,466,94,82,281,385,125,125
66028,CABESTANY,66,66136,PERPIGNAN,66,42.6790392,2.946286334,1529,9683,4169,9979,6754,20705,42.69659541,2.89936954,20249,4.3,5.2,11,4.9,21,3137,3200,807,856,2330,2345,1626,1588
66037,CANET-EN-ROUSSILLON,66,66136,PERPIGNAN,66,42.6841288,3.011617448,1227,12224,7103,13360,9960,19546,42.69659541,2.89936954,20249,9.3,11.8,14,10.5,74,4096,3582,1483,1446,2614,2136,1492,1345
66037,CANET-EN-ROUSSILLON,66,66028,CABESTANY,66,42.6841288,3.011617448,1227,12224,7103,13360,9960,19546,42.6790392,2.946286334,1529,5.4,7.4,10,6.4,50,4096,3582,1483,1446,2614,2136,128,104
66038,CANOHES,66,66213,TOULOUGES,66,42.65185069,2.834751382,273,5263,2500,6006,4065,20395,42.66961317,2.824068548,831,2.2,4.0,8,2.9,13,1988,2143,381,398,1606,1745,121,141
66038,CANOHES,66,66136,PERPIGNAN,66,42.65185069,2.834751382,273,5263,2500,6006,4065,20395,42.69659541,2.89936954,20249,7.3,10.9,17,9.2,40,1988,2143,381,398,1606,1745,1066,1116
66041,CASES-DE-PENE,66,66136,PERPIGNAN,66,42.78674074,2.778536273,33,881,327,875,560,19361,42.69659541,2.89936954,20249,14.1,19.8,24,18.6,79,316,348,48,50,268,298,108,163
66045,CATLLAR,66,66149,PRADES,66,42.64043799,2.422582315,20,728,342,729,516,19398,42.6145022,2.430748491,1057,3.0,6.5,12,5.6,27,287,0,76,0,211,0,124,0
66049,CERET,66,66136,PERPIGNAN,66,42.47396221,2.752680215,923,7663,3720,7525,5439,19087,42.69659541,2.89936954,20249,27.5,38.2,44,36.6,159,2383,2290,1437,1319,947,971,243,316
66049,CERET,66,66003,AMELIE-LES-BAINS-PALALDA,66,42.47396221,2.752680215,923,7663,3720,7525,5439,19087,42.44368591,2.683384321,334,6.6,20.9,39,15.6,86,2383,0,1437,0,947,0,146,0
66049,CERET,66,66024,LE BOULOU,66,42.47396221,2.752680215,923,7663,3720,7525,5439,19087,42.52635812,2.831577066,715,8.7,13.7,24,12.2,56,2383,2290,1437,1319,947,971,158,133
66050,CLAIRA,66,66136,PERPIGNAN,66,42.76419826,2.944761453,587,3983,1728,4189,2808,19174,42.69659541,2.89936954,20249,8.4,11.4,20,12.3,54,1360,1537,243,353,1117,1184,610,641
66055,CORBERE,66,66136,PERPIGNAN,66,42.65096012,2.661560137,45,724,290,743,486,18471,42.69659541,2.89936954,20249,20.1,24.7,26,24.0,101,299,388,54,109,245,278,132,114
66056,CORBERE-LES-CABANES,66,66136,PERPIGNAN,66,42.65985151,2.682478421,50,1168,440,1105,729,19357,42.69659541,2.89936954,20249,18.2,22.4,23,21.9,92,453,511,93,104,360,407,186,179
66058,CORNEILLA-LA-RIVIERE,66,66136,PERPIGNAN,66,42.70956715,2.725485617,94,2002,794,1986,1317,18265,42.69659541,2.89936954,20249,14.3,19.7,24,17.5,77,695,845,137,185,558,660,277,346
66059,CORNEILLA-DEL-VERCOL,66,66136,PERPIGNAN,66,42.6232157,2.950701167,69,2190,896,2183,1462,19332,42.69659541,2.89936954,20249,9.2,9.9,15,10.9,47,765,878,141,172,625,706,303,363
66064,EGAT,66,66124,FONT-ROMEU-ODEILLO-VIA,66,42.50121256,2.01713211,88,442,194,445,304,19116,42.5132425,2.026977001,554,1.6,2.3,6,2.3,11,212,255,56,65,156,190,100,115
66065,ELNE,66,66136,PERPIGNAN,66,42.60085921,2.971196951,1053,8556,3748,8813,5959,16748,42.69659541,2.89936954,20249,12.2,13.7,19,14.6,63,2787,3055,1086,1155,1702,1901,831,940
66065,ELNE,66,66008,ARGELES-SUR-MER,66,42.60085921,2.971196951,1053,8556,3748,8813,5959,16748,42.53521935,3.024298629,1689,8.5,12.1,13,9.8,41,2787,3055,1086,1155,1702,1901,134,182
66065,ELNE,66,66171,SAINT-CYPRIEN,66,42.60085921,2.971196951,1053,8556,3748,8813,5959,16748,42.62202803,3.016220143,899,4.4,5.6,10,5.8,25,2787,0,1086,0,1702,0,105,0
66069,ESPIRA-DE-L'AGLY,66,66164,RIVESALTES,66,42.79647402,2.822349637,208,3384,1304,3279,2162,18185,42.77859104,2.876872965,1713,4.9,10.8,13,7.2,30,1215,1290,303,382,912,908,149,124
66069,ESPIRA-DE-L'AGLY,66,66136,PERPIGNAN,66,42.79647402,2.822349637,208,3384,1304,3279,2162,18185,42.69659541,2.89936954,20249,12.8,16.0,21,17.4,75,1215,1290,303,382,912,908,432,412
66071,ESTAGEL,66,66136,PERPIGNAN,66,42.76773068,2.707541796,179,2053,952,2066,1438,16424,42.69659541,2.89936954,20249,17.6,26.3,31,22.4,99,662,766,258,303,403,463,169,181
66084,FOURQUES,66,66136,PERPIGNAN,66,42.58512037,2.776621106,68,1197,509,1251,833,18453,42.69659541,2.89936954,20249,16.0,20.9,30,19.8,83,400,485,104,100,296,385,160,200
66088,ILLE-SUR-TET,66,66136,PERPIGNAN,66,42.67742232,2.616398045,589,5375,2433,5316,3707,16528,42.69659541,2.89936954,20249,23.2,27.7,27,28.9,122,1717,1797,877,815,840,982,401,389
66093,LAROQUE-DES-ALBERES,66,66136,PERPIGNAN,66,42.5116805,2.933030851,126,2132,1028,2225,1578,21265,42.69659541,2.89936954,20249,20.8,31.5,36,25.6,110,0,594,0,178,0,416,0,107
66094,LATOUR-BAS-ELNE,66,66136,PERPIGNAN,66,42.60430439,3.005241992,132,2372,1001,2422,1637,19789,42.69659541,2.89936954,20249,13.4,15.7,22,16.6,70,832,948,192,250,640,698,204,240
66094,LATOUR-BAS-ELNE,66,66171,SAINT-CYPRIEN,66,42.60430439,3.005241992,132,2372,1001,2422,1637,19789,42.62202803,3.016220143,899,2.2,3.4,7,3.2,14,832,0,192,0,640,0,136,0
66094,LATOUR-BAS-ELNE,66,66065,ELNE,66,42.60430439,3.005241992,132,2372,1001,2422,1637,19789,42.60085921,2.971196951,1053,2.8,3.6,7,4.2,18,0,948,0,250,0,698,0,105
66096,LATOUR-DE-FRANCE,66,66136,PERPIGNAN,66,42.77046593,2.651566044,79,1048,422,958,660,16879,42.69659541,2.89936954,20249,21.8,30.2,36,27.9,120,0,353,0,146,0,207,0,101
66101,LLUPIA,66,66136,PERPIGNAN,66,42.62594544,2.78302556,81,1964,828,1979,1351,20795,42.69659541,2.89936954,20249,12.3,18.1,24,15.3,67,724,740,102,125,622,615,239,280
66101,LLUPIA,66,66210,THUIR,66,42.62594544,2.78302556,81,1964,828,1979,1351,20795,42.64341955,2.75897244,920,2.8,5.0,9,5.2,23,724,740,102,125,622,615,176,180
66106,MAUREILLAS-LAS-ILLAS,66,66024,LE BOULOU,66,42.46007679,2.801179658,76,2633,1199,2645,1854,18950,42.52635812,2.831577066,715,7.8,9.7,19,10.8,45,944,0,222,0,722,0,119,0
66106,MAUREILLAS-LAS-ILLAS,66,66136,PERPIGNAN,66,42.46007679,2.801179658,76,2633,1199,2645,1854,18950,42.69659541,2.89936954,20249,27.5,36.5,42,35.2,148,944,885,222,257,722,628,159,160
66106,MAUREILLAS-LAS-ILLAS,66,66049,CERET,66,42.46007679,2.801179658,76,2633,1199,2645,1854,18950,42.47396221,2.752680215,923,4.3,22.7,43,10.9,49,944,885,222,257,722,628,182,180
66108,MILLAS,66,66136,PERPIGNAN,66,42.69898254,2.689911043,361,4148,1685,3926,2676,17729,42.69659541,2.89936954,20249,17.1,30.7,26,20.0,85,1284,1367,421,389,863,978,489,431
66114,MONTESCOT,66,66136,PERPIGNAN,66,42.61545712,2.92213722,84,1756,693,1768,1174,19593,42.69659541,2.89936954,20249,9.2,10.5,18,10.4,46,664,711,96,160,568,551,264,243
66121,NEFIACH,66,66136,PERPIGNAN,66,42.69612584,2.658435903,83,1243,519,1237,832,18356,42.69659541,2.89936954,20249,19.7,28.1,25,25.0,109,414,466,62,53,352,412,161,180
66127,OPOUL-PERILLOS,66,66136,PERPIGNAN,66,42.8800628,2.858051133,27,1089,456,1138,751,17123,42.69659541,2.89936954,20249,20.7,28.8,36,28.8,127,363,374,116,106,247,269,135,115
66129,ORTAFFA,66,66136,PERPIGNAN,66,42.58434667,2.920833986,36,1295,567,1443,952,18281,42.69659541,2.89936954,20249,12.6,14.1,20,15.0,65,483,483,80,75,402,408,153,191
66133,PALAU-DEL-VIDRE,66,66136,PERPIGNAN,66,42.56870328,2.958098908,186,3205,1260,3143,2091,18148,42.69659541,2.89936954,20249,15.0,20.4,23,19.2,82,1005,1261,271,362,734,899,217,191
66133,PALAU-DEL-VIDRE,66,66008,ARGELES-SUR-MER,66,42.56870328,2.958098908,186,3205,1260,3143,2091,18148,42.53521935,3.024298629,1689,6.6,7.8,12,8.2,35,1005,1261,271,362,734,899,115,154
66134,PASSA,66,66136,PERPIGNAN,66,42.56500785,2.804639014,22,692,310,735,493,17091,42.69659541,2.89936954,20249,16.6,19.9,32,21.4,90,0,304,0,77,0,227,0,109
66136,PERPIGNAN,66,66050,CLAIRA,66,42.69659541,2.89936954,20249,120605,54451,110779,78977,15818,42.76419826,2.944761453,587,8.4,15.7,19,12.5,55,36706,34523,28149,26064,8557,8459,152,204
66136,PERPIGNAN,66,66037,CANET-EN-ROUSSILLON,66,42.69659541,2.89936954,20249,120605,54451,110779,78977,15818,42.6841288,3.011617448,1227,9.3,12.0,15,10.4,73,36706,34523,28149,26064,8557,8459,470,590
66136,PERPIGNAN,66,34172,MONTPELLIER,34,42.69659541,2.89936954,20249,120605,54451,110779,78977,15818,43.61344091,3.868516579,38976,128.8,159.0,110,168.3,791,0,34523,0,26064,0,8459,0,119
66136,PERPIGNAN,66,66144,POLLESTRES,66,42.69659541,2.89936954,20249,120605,54451,110779,78977,15818,42.63748277,2.872863153,363,6.9,7.6,13,8.5,36,36706,34523,28149,26064,8557,8459,144,132
66136,PERPIGNAN,66,66149,PRADES,66,42.69659541,2.89936954,20249,120605,54451,110779,78977,15818,42.6145022,2.430748491,1057,39.4,45.1,39,50.2,218,36706,0,28149,0,8557,0,100,0
66136,PERPIGNAN,66,66171,SAINT-CYPRIEN,66,42.69659541,2.89936954,20249,120605,54451,110779,78977,15818,42.62202803,3.016220143,899,12.7,16.8,22,15.7,67,36706,34523,28149,26064,8557,8459,200,141
66136,PERPIGNAN,66,66049,CERET,66,42.69659541,2.89936954,20249,120605,54451,110779,78977,15818,42.47396221,2.752680215,923,27.5,37.9,42,36.6,160,36706,0,28149,0,8557,0,112,0
66136,PERPIGNAN,66,66180,SAINT-LAURENT-DE-LA-SALANQUE,66,42.69659541,2.89936954,20249,120605,54451,110779,78977,15818,42.79356503,3.002078796,521,13.7,21.0,22,17.6,79,0,34523,0,26064,0,8459,0,109
66136,PERPIGNAN,66,66172,SAINT-ESTEVE,66,42.69659541,2.89936954,20249,120605,54451,110779,78977,15818,42.71511222,2.846119142,1362,4.8,6.6,13,7.0,31,36706,34523,28149,26064,8557,8459,550,484
66136,PERPIGNAN,66,66213,TOULOUGES,66,42.69659541,2.89936954,20249,120605,54451,110779,78977,15818,42.66961317,2.824068548,831,6.8,11.6,16,7.9,34,36706,34523,28149,26064,8557,8459,252,306
66136,PERPIGNAN,66,66195,LE SOLER,66,42.69659541,2.89936954,20249,120605,54451,110779,78977,15818,42.67768532,2.795653591,619,8.7,10.7,15,10.8,46,36706,34523,28149,26064,8557,8459,258,242
66136,PERPIGNAN,66,66212,TORREILLES,66,42.69659541,2.89936954,20249,120605,54451,110779,78977,15818,42.75339247,3.008606144,203,10.9,13.8,21,13.4,61,0,34523,0,26064,0,8459,0,129
66136,PERPIGNAN,66,66141,PIA,66,42.69659541,2.89936954,20249,120605,54451,110779,78977,15818,42.74870123,2.914973811,791,5.9,10.4,12,8.1,35,36706,34523,28149,26064,8557,8459,274,203
66136,PERPIGNAN,66,66189,SALEILLES,66,42.69659541,2.89936954,20249,120605,54451,110779,78977,15818,42.65684101,2.949204872,499,6.0,7.3,14,6.6,29,36706,34523,28149,26064,8557,8459,204,216
66136,PERPIGNAN,66,66028,CABESTANY,66,42.69659541,2.89936954,20249,120605,54451,110779,78977,15818,42.6790392,2.946286334,1529,4.3,6.5,13,5.0,22,36706,34523,28149,26064,8557,8459,1005,987
66136,PERPIGNAN,66,66208,THEZA,66,42.69659541,2.89936954,20249,120605,54451,110779,78977,15818,42.64010803,2.945642751,88,7.3,9.4,15,9.4,41,36706,0,28149,0,8557,0,134,0
66136,PERPIGNAN,66,66024,LE BOULOU,66,42.69659541,2.89936954,20249,120605,54451,110779,78977,15818,42.52635812,2.831577066,715,19.7,21.5,27,24.5,106,0,34523,0,26064,0,8459,0,125
66136,PERPIGNAN,66,66210,THUIR,66,42.69659541,2.89936954,20249,120605,54451,110779,78977,15818,42.64341955,2.75897244,920,12.9,15.8,22,15.3,64,36706,34523,28149,26064,8557,8459,332,286
66136,PERPIGNAN,66,66164,RIVESALTES,66,42.69659541,2.89936954,20249,120605,54451,110779,78977,15818,42.77859104,2.876872965,1713,9.3,14.9,17,13.1,56,36706,34523,28149,26064,8557,8459,604,602
66136,PERPIGNAN,66,66021,BOMPAS,66,42.69659541,2.89936954,20249,120605,54451,110779,78977,15818,42.7286936,2.942280685,453,5.0,7.0,12,7.0,30,36706,34523,28149,26064,8557,8459,231,201
66136,PERPIGNAN,66,66082,FORMIGUERES,66,42.69659541,2.89936954,20249,120605,54451,110779,78977,15818,42.62099684,2.054024566,63,69.7,99.6,101,93.4,442,0,34523,0,26064,0,8459,0,159
66136,PERPIGNAN,66,66008,ARGELES-SUR-MER,66,42.69659541,2.89936954,20249,120605,54451,110779,78977,15818,42.53521935,3.024298629,1689,20.7,25.6,25,26.3,111,36706,34523,28149,26064,8557,8459,290,227
66136,PERPIGNAN,66,11262,NARBONNE,11,42.69659541,2.89936954,20249,120605,54451,110779,78977,15818,43.16523999,3.020238687,8815,53.0,67.4,51,69.6,352,36706,34523,28149,26064,8557,8459,150,133
66136,PERPIGNAN,66,66065,ELNE,66,42.69659541,2.89936954,20249,120605,54451,110779,78977,15818,42.60085921,2.971196951,1053,12.2,13.0,17,14.4,61,36706,34523,28149,26064,8557,8459,225,214
66138,PEYRESTORTES,66,66136,PERPIGNAN,66,42.74835327,2.845684712,61,1368,574,1282,887,18433,42.69659541,2.89936954,20249,7.2,11.6,17,9.7,42,529,546,126,127,403,420,273,233
66140,PEZILLA-LA-RIVIERE,66,66136,PERPIGNAN,66,42.7052767,2.764205598,153,3418,1421,3448,2314,18230,42.69659541,2.89936954,20249,11.1,17.2,21,15.3,65,1288,1254,348,345,940,909,536,430
66141,PIA,66,66164,RIVESALTES,66,42.74870123,2.914973811,791,8519,3078,8123,5286,17583,42.77859104,2.876872965,1713,4.6,7.7,9,6.3,27,2850,3168,798,883,2053,2285,146,121
66141,PIA,66,66136,PERPIGNAN,66,42.74870123,2.914973811,791,8519,3078,8123,5286,17583,42.69659541,2.89936954,20249,5.9,7.4,15,8.1,35,2850,3168,798,883,2053,2285,1187,1467
66141,PIA,66,66172,SAINT-ESTEVE,66,42.74870123,2.914973811,791,8519,3078,8123,5286,17583,42.71511222,2.846119142,1362,6.8,10.1,12,10.1,43,2850,0,798,0,2053,0,100,0
66144,POLLESTRES,66,66136,PERPIGNAN,66,42.63748277,2.872863153,363,4702,1933,4832,3200,19616,42.69659541,2.89936954,20249,6.9,10.0,17,9.2,39,1775,1772,363,424,1413,1348,947,855
66145,PONTEILLA,66,66136,PERPIGNAN,66,42.63280675,2.826399756,109,2826,1113,2784,1843,18923,42.69659541,2.89936954,20249,9.3,13.1,19,11.8,51,1289,1240,270,242,1019,998,602,537
66148,PORT-VENDRES,66,66053,COLLIOURE,66,42.50258178,3.104558912,453,4200,2044,3865,2857,16819,42.51301073,3.072541215,407,2.9,7.4,16,5.1,22,1356,1302,776,754,580,548,148,155
66148,PORT-VENDRES,66,66136,PERPIGNAN,66,42.50258178,3.104558912,453,4200,2044,3865,2857,16819,42.69659541,2.89936954,20249,27.3,35.3,35,36.0,154,1356,1302,776,754,580,548,140,120
66149,PRADES,66,66136,PERPIGNAN,66,42.6145022,2.430748491,1057,5927,3001,6097,4380,16962,42.69659541,2.89936954,20249,39.4,45.5,41,50.2,217,1846,1660,1289,1189,558,471,182,165
66160,REYNES,66,66049,CERET,66,42.47555368,2.705590517,56,1349,590,1386,951,19297,42.47396221,2.752680215,923,3.9,9.6,20,7.3,39,0,517,0,113,0,404,0,134
66161,RIA-SIRACH,66,66149,PRADES,66,42.61287603,2.389208466,69,1309,600,1334,926,17183,42.6145022,2.430748491,1057,3.4,4.6,9,4.4,20,431,450,92,142,339,308,208,192
66164,RIVESALTES,66,66136,PERPIGNAN,66,42.77859104,2.876872965,1713,8550,3705,8472,5826,17705,42.69659541,2.89936954,20249,9.3,14.7,18,13.3,57,2832,3101,1213,1237,1619,1864,1018,1104
66168,SAINT-ANDRE,66,66008,ARGELES-SUR-MER,66,42.55245732,2.980005073,189,3309,1577,3435,2417,19238,42.53521935,3.024298629,1689,4.1,5.1,9,5.0,21,949,1033,153,224,796,810,218,243
66168,SAINT-ANDRE,66,66136,PERPIGNAN,66,42.55245732,2.980005073,189,3309,1577,3435,2417,19238,42.69659541,2.89936954,20249,17.3,23.4,24,22.2,95,949,1033,153,224,796,810,226,174
66171,SAINT-CYPRIEN,66,66008,ARGELES-SUR-MER,66,42.62202803,3.016220143,899,10015,5724,11142,8205,19383,42.53521935,3.024298629,1689,9.7,18.0,19,11.8,50,3279,2663,1547,1295,1732,1368,149,106
66171,SAINT-CYPRIEN,66,66136,PERPIGNAN,66,42.62202803,3.016220143,899,10015,5724,11142,8205,19383,42.69659541,2.89936954,20249,12.7,16.6,21,15.8,68,3279,2663,1547,1295,1732,1368,651,574
66171,SAINT-CYPRIEN,66,66065,ELNE,66,42.62202803,3.016220143,899,10015,5724,11142,8205,19383,42.60085921,2.971196951,1053,4.4,5.7,11,5.6,24,3279,2663,1547,1295,1732,1368,157,115
66172,SAINT-ESTEVE,66,66136,PERPIGNAN,66,42.71511222,2.846119142,1362,11925,5107,11433,7935,19456,42.69659541,2.89936954,20249,4.8,6.5,14,6.8,31,4344,4441,1132,1363,3212,3078,2163,2034
66172,SAINT-ESTEVE,66,66164,RIVESALTES,66,42.71511222,2.846119142,1362,11925,5107,11433,7935,19456,42.77859104,2.876872965,1713,7.5,10.5,15,10.0,45,4344,4441,1132,1363,3212,3078,154,216
66173,SAINT-FELIU-D'AMONT,66,66136,PERPIGNAN,66,42.67629887,2.717855694,24,1011,411,1032,681,19176,42.69659541,2.89936954,20249,15.0,16.9,20,18.4,78,290,460,32,62,258,398,133,226
66174,SAINT-FELIU-D'AVALL,66,66136,PERPIGNAN,66,42.67269731,2.747756546,178,2633,1117,2731,1828,18611,42.69659541,2.89936954,20249,12.7,15.8,19,15.9,70,1073,1023,299,217,774,807,391,389
66175,SAINT-GENIS-DES-FONTAINES,66,66136,PERPIGNAN,66,42.55016907,2.920221875,160,2744,1316,2809,1998,19970,42.69659541,2.89936954,20249,16.4,29.6,29,19.4,82,701,672,202,230,499,442,104,112
66176,SAINT-HIPPOLYTE,66,66136,PERPIGNAN,66,42.80694554,2.973671622,114,2872,1179,2953,1954,18399,42.69659541,2.89936954,20249,13.7,21.8,28,17.8,78,882,1167,169,207,713,960,310,421
66177,SAINT-JEAN-LASSEILLE,66,66136,PERPIGNAN,66,42.58623252,2.864881698,39,1478,547,1482,941,18867,42.69659541,2.89936954,20249,12.6,13.9,22,15.6,67,364,625,48,100,316,525,192,270
66178,SAINT-JEAN-PLA-DE-CORTS,66,66049,CERET,66,42.51546736,2.794286568,133,2073,915,2158,1474,19410,42.47396221,2.752680215,923,5.7,10.1,19,8.2,40,772,791,170,194,603,597,129,121
66178,SAINT-JEAN-PLA-DE-CORTS,66,66136,PERPIGNAN,66,42.51546736,2.794286568,133,2073,915,2158,1474,19410,42.69659541,2.89936954,20249,21.9,29.4,29,31.3,131,772,791,170,194,603,597,125,169
66178,SAINT-JEAN-PLA-DE-CORTS,66,66024,LE BOULOU,66,42.51546736,2.794286568,133,2073,915,2158,1474,19410,42.52635812,2.831577066,715,3.3,4.9,9,4.9,22,772,791,170,194,603,597,109,137
66180,SAINT-LAURENT-DE-LA-SALANQUE,66,66164,RIVESALTES,66,42.79356503,3.002078796,521,10269,4593,10147,7075,18502,42.77859104,2.876872965,1713,10.4,11.9,12,13.7,60,2729,3330,948,951,1781,2379,132,158
66180,SAINT-LAURENT-DE-LA-SALANQUE,66,66017,LE BARCARES,66,42.79356503,3.002078796,521,10269,4593,10147,7075,18502,42.8127711,3.028341251,552,3.0,9.2,11,8.0,37,2729,3330,948,951,1781,2379,208,197
66180,SAINT-LAURENT-DE-LA-SALANQUE,66,66050,CLAIRA,66,42.79356503,3.002078796,521,10269,4593,10147,7075,18502,42.76419826,2.944761453,587,5.7,7.5,10,7.5,33,0,3330,0,951,0,2379,0,174
66180,SAINT-LAURENT-DE-LA-SALANQUE,66,66136,PERPIGNAN,66,42.79356503,3.002078796,521,10269,4593,10147,7075,18502,42.69659541,2.89936954,20249,13.7,21.5,21,17.7,78,2729,3330,948,951,1781,2379,728,981
66182,SAINTE-MARIE,66,66037,CANET-EN-ROUSSILLON,66,42.72625014,3.017081634,213,4762,2392,5069,3599,18389,42.6841288,3.011617448,1227,4.7,5.2,9,7.2,50,1676,1510,472,385,1204,1125,144,125
66182,SAINTE-MARIE,66,66136,PERPIGNAN,66,42.72625014,3.017081634,213,4762,2392,5069,3599,18389,42.69659541,2.89936954,20249,10.2,13.2,16,12.8,54,1676,1510,472,385,1204,1125,584,557
66186,SAINT-NAZAIRE,66,66136,PERPIGNAN,66,42.66214288,2.986701421,133,2559,1053,2495,1695,19871,42.69659541,2.89936954,20249,8.1,10.0,17,9.1,39,898,893,219,183,679,710,384,350
66189,SALEILLES,66,66028,CABESTANY,66,42.65684101,2.949204872,499,4988,2232,5128,3535,20749,42.6790392,2.946286334,1529,2.5,3.6,7,3.0,13,1613,1985,338,322,1275,1663,125,163
66189,SALEILLES,66,66136,PERPIGNAN,66,42.65684101,2.949204872,499,4988,2232,5128,3535,20749,42.69659541,2.89936954,20249,6.0,7.4,15,6.6,29,1613,1985,338,322,1275,1663,778,1009
66190,SALSES-LE-CHATEAU,66,66136,PERPIGNAN,66,42.83719855,2.915935803,160,3378,1300,3077,2072,17362,42.69659541,2.89936954,20249,15.7,18.7,22,20.1,85,1034,1123,382,276,651,847,323,397
66195,LE SOLER,66,66136,PERPIGNAN,66,42.67768532,2.795653591,619,7524,3031,7452,4982,18958,42.69659541,2.89936954,20249,8.7,11.2,17,10.8,46,2751,2852,743,706,2008,2146,1159,1350
66196,SOREDE,66,66008,ARGELES-SUR-MER,66,42.49987344,2.980471936,161,3153,1536,3215,2307,19894,42.53521935,3.024298629,1689,5.3,12.6,26,9.4,46,874,893,305,209,569,684,166,189
66196,SOREDE,66,66136,PERPIGNAN,66,42.49987344,2.980471936,161,3153,1536,3215,2307,19894,42.69659541,2.89936954,20249,22.9,32.8,42,28.3,120,874,893,305,209,569,684,154,165
66207,TERRATS,66,66136,PERPIGNAN,66,42.60330881,2.759675537,28,653,274,649,440,18061,42.69659541,2.89936954,20249,15.4,20.9,31,17.7,74,272,0,54,0,218,0,101,0
66208,THEZA,66,66136,PERPIGNAN,66,42.64010803,2.945642751,88,1780,735,1807,1200,18029,42.69659541,2.89936954,20249,7.3,9.3,14,9.4,41,432,742,92,200,340,542,172,254
66210,THUIR,66,66136,PERPIGNAN,66,42.64341955,2.75897244,920,7374,3297,7152,5026,18607,42.69659541,2.89936954,20249,12.9,17.3,23,15.5,66,2616,2528,1278,1105,1339,1423,780,811
66212,TORREILLES,66,66136,PERPIGNAN,66,42.75339247,3.008606144,203,3643,1782,4061,2778,18646,42.69659541,2.89936954,20249,10.9,13.0,20,13.2,60,1297,1357,342,331,955,1026,441,480
66212,TORREILLES,66,66180,SAINT-LAURENT-DE-LA-SALANQUE,66,42.75339247,3.008606144,203,3643,1782,4061,2778,18646,42.79356503,3.002078796,521,4.5,8.6,11,7.6,36,1297,0,342,0,955,0,123,0
66213,TOULOUGES,66,66136,PERPIGNAN,66,42.66961317,2.824068548,831,6690,2859,6780,4597,19650,42.69659541,2.89936954,20249,6.8,11.6,17,7.9,34,2444,2659,532,650,1912,2009,1360,1368
66213,TOULOUGES,66,66210,THUIR,66,42.66961317,2.824068548,831,6690,2859,6780,4597,19650,42.64341955,2.75897244,920,6.1,7.7,11,7.8,32,0,2659,0,650,0,2009,0,109
66214,TRESSERRE,66,66136,PERPIGNAN,66,42.55563206,2.837553037,30,1019,424,1037,692,19714,42.69659541,2.89936954,20249,16.5,18.7,26,21.7,92,0,485,0,120,0,365,0,140
66217,TROUILLAS,66,66136,PERPIGNAN,66,42.60643924,2.820211738,93,1949,836,1951,1318,18108,42.69659541,2.89936954,20249,11.9,17.8,25,16.1,75,748,802,201,179,547,624,271,324
66224,VILLELONGUE-DE-LA-SALANQUE,66,66136,PERPIGNAN,66,42.72560989,2.977461607,128,3296,1330,3267,2180,18653,42.69659541,2.89936954,20249,7.2,9.1,14,9.4,40,1155,1356,319,319,836,1037,443,502
66225,VILLELONGUE-DELS-MONTS,66,66136,PERPIGNAN,66,42.52360114,2.899947897,138,1608,683,1604,1095,19960,42.69659541,2.89936954,20249,19.2,33.7,34,22.6,96,424,0,84,0,340,0,112,0
66226,VILLEMOLAQUE,66,66136,PERPIGNAN,66,42.59313394,2.847769709,43,1239,513,1295,858,18019,42.69659541,2.89936954,20249,12.3,13.6,20,15.2,65,454,431,69,114,385,318,179,145
66227,VILLENEUVE-DE-LA-RAHO,66,66136,PERPIGNAN,66,42.63999175,2.910450285,220,3854,1694,4054,2764,21379,42.69659541,2.89936954,20249,6.4,9.0,15,6.9,29,1531,1586,293,289,1238,1297,831,783
66228,VILLENEUVE-LA-RIVIERE,66,66136,PERPIGNAN,66,42.70529063,2.798736863,48,1288,506,1257,838,18611,42.69659541,2.89936954,20249,8.3,12.6,18,10.1,46,485,442,125,90,360,352,190,171
66230,VINCA,66,66136,PERPIGNAN,66,42.64326224,2.522724327,105,1994,950,1951,1402,18435,42.69659541,2.89936954,20249,31.4,37.6,33,39.1,169,0,653,0,265,0,388,0,127
66230,VINCA,66,66149,PRADES,66,42.64326224,2.522724327,105,1994,950,1951,1402,18435,42.6145022,2.430748491,1057,8.2,9.3,12,11.3,51,632,0,194,0,438,0,126,0
81002,AIGUEFONDE,81,81065,CASTRES,81,43.49285502,2.323155814,159,2538,1110,2655,1807,19354,43.61565112,2.237872316,6200,15.3,22.5,22,20.4,87,1101,1035,183,206,918,829,162,189
81002,AIGUEFONDE,81,81163,MAZAMET,81,43.49285502,2.323155814,159,2538,1110,2655,1807,19354,43.45787803,2.388534691,1548,6.6,13.0,20,10.0,46,1101,1035,183,206,918,829,372,236
81002,AIGUEFONDE,81,81021,AUSSILLON,81,43.49285502,2.323155814,159,2538,1110,2655,1807,19354,43.49468239,2.355804926,718,2.6,3.5,5,3.3,14,1101,1035,183,206,918,829,150,177
81004,ALBI,81,81257,SAINT-JUERY,81,43.92582136,2.146863286,8856,49531,22674,45346,32754,19553,43.93855715,2.226144153,510,6.5,10.9,20,8.6,37,17120,16660,12419,12100,4700,4560,348,270
81004,ALBI,81,81218,PUYGOUZON,81,43.92582136,2.146863286,8856,49531,22674,45346,32754,19553,43.88845732,2.169556439,402,4.5,6.7,15,6.0,26,17120,16660,12419,12100,4700,4560,196,161
81004,ALBI,81,81156,MARSSAC-SUR-TARN,81,43.92582136,2.146863286,8856,49531,22674,45346,32754,19553,43.91027263,2.036411411,289,9.0,9.8,15,9.9,43,17120,0,12419,0,4700,0,143,0
81004,ALBI,81,81144,LESCURE-D'ALBIGEOIS,81,43.92582136,2.146863286,8856,49531,22674,45346,32754,19553,43.96561644,2.1823093,504,5.3,6.5,15,9.6,42,17120,16660,12419,12100,4700,4560,260,195
81004,ALBI,81,31555,TOULOUSE,31,43.92582136,2.146863286,8856,49531,22674,45346,32754,19553,43.59638143,1.431672934,71878,68.1,82.2,60,81.4,337,17120,16660,12419,12100,4700,4560,480,484
81004,ALBI,81,81099,GAILLAC,81,43.92582136,2.146863286,8856,49531,22674,45346,32754,19553,43.91709688,1.886472138,2095,20.9,22.7,29,25.2,105,17120,16660,12419,12100,4700,4560,346,316
81004,ALBI,81,81284,LE SEQUESTRE,81,43.92582136,2.146863286,8856,49531,22674,45346,32754,19553,43.91054023,2.106556642,522,3.6,5.1,12,4.6,19,17120,16660,12419,12100,4700,4560,287,202
81004,ALBI,81,81065,CASTRES,81,43.92582136,2.146863286,8856,49531,22674,45346,32754,19553,43.61565112,2.237872316,6200,35.3,41.1,47,43.8,202,17120,16660,12419,12100,4700,4560,148,156
81004,ALBI,81,81297,TERSSAC,81,43.92582136,2.146863286,8856,49531,22674,45346,32754,19553,43.92257156,2.069103583,310,6.2,6.7,12,6.7,28,17120,16660,12419,12100,4700,4560,127,103
81004,ALBI,81,81060,CARMAUX,81,43.92582136,2.146863286,8856,49531,22674,45346,32754,19553,44.05666673,2.166414185,1092,14.6,19.7,29,19.3,81,17120,16660,12419,12100,4700,4560,415,386
81004,ALBI,81,81105,GRAULHET,81,43.92582136,2.146863286,8856,49531,22674,45346,32754,19553,43.75765622,2.001225129,1556,22.1,26.9,34,26.9,112,17120,16660,12419,12100,4700,4560,110,142
81011,AMBRES,81,81140,LAVAUR,81,43.72873448,1.831823967,65,973,360,1015,648,22434,43.68956287,1.794372137,1727,5.3,6.5,11,6.7,28,434,445,78,99,357,346,112,144
81018,ARTHES,81,81004,ALBI,81,43.96388155,2.225870136,76,2509,1051,2507,1707,20900,43.92582136,2.146863286,8856,7.6,8.8,21,9.6,44,1068,1049,192,131,876,918,511,519
81021,AUSSILLON,81,81065,CASTRES,81,43.49468239,2.355804926,718,6121,2645,5940,4135,17342,43.61565112,2.237872316,6200,16.5,23.5,24,22.9,99,1933,1730,807,583,1126,1147,165,206
81021,AUSSILLON,81,81163,MAZAMET,81,43.49468239,2.355804926,718,6121,2645,5940,4135,17342,43.45787803,2.388534691,1548,4.9,9.5,15,6.7,32,1933,1730,807,583,1126,1147,595,538
81026,BELLEGARDE,81,81004,ALBI,81,43.90457217,2.277273202,14,721,171,458,296,19824,43.92582136,2.146863286,8856,10.7,15.4,24,12.2,51,0,305,0,70,0,235,0,152
81031,LE BEZ,81,81065,CASTRES,81,43.62221467,2.452715152,80,841,334,845,565,19372,43.61565112,2.237872316,6200,17.3,21.1,24,22.9,95,0,437,0,135,0,301,0,105
81032,BLAN,81,31451,REVEL,31,43.51952015,2.023699276,86,1147,387,1017,663,18845,43.46560378,1.996893941,1508,6.4,9.2,12,8.1,33,387,461,43,103,344,359,132,103
81033,BLAYE-LES-MINES,81,81060,CARMAUX,81,44.03306579,2.142789201,341,3061,1473,3070,2175,17895,44.05666673,2.166414185,1092,3.2,5.4,11,4.9,21,1070,1004,240,314,830,689,256,187
81033,BLAYE-LES-MINES,81,81004,ALBI,81,44.03306579,2.142789201,341,3061,1473,3070,2175,17895,43.92582136,2.146863286,8856,11.9,19.4,30,14.5,61,1070,1004,240,314,830,689,296,227
81036,BOUT-DU-PONT-DE-LARN,81,81163,MAZAMET,81,43.50155832,2.429811432,268,1251,524,1285,863,20612,43.45787803,2.388534691,1548,5.9,14.2,27,12.0,54,492,572,112,102,380,470,172,172
81036,BOUT-DU-PONT-DE-LARN,81,81065,CASTRES,81,43.50155832,2.429811432,268,1251,524,1285,863,20612,43.61565112,2.237872316,6200,20.0,31.7,36,28.5,120,0,572,0,102,0,470,0,106
81038,BRENS,81,81099,GAILLAC,81,43.88781073,1.929671201,296,2256,900,2312,1513,20825,43.91709688,1.886472138,2095,4.8,11.6,13,7.1,30,918,909,187,177,731,732,289,231
81038,BRENS,81,81004,ALBI,81,43.88781073,1.929671201,296,2256,900,2312,1513,20825,43.92582136,2.146863286,8856,17.9,25.0,24,23.2,98,918,909,187,177,731,732,164,157
81039,BRIATEXTE,81,81140,LAVAUR,81,43.7471934,1.923779649,175,2020,819,1995,1338,18560,43.68956287,1.794372137,1727,12.2,14.9,23,15.5,63,727,634,223,136,504,498,100,111
81039,BRIATEXTE,81,81105,GRAULHET,81,43.7471934,1.923779649,175,2020,819,1995,1338,18560,43.75765622,2.001225129,1556,6.3,7.8,13,8.9,38,727,0,223,0,504,0,135,0
81042,BURLATS,81,81065,CASTRES,81,43.63449423,2.329857918,134,2061,865,2145,1436,20298,43.61565112,2.237872316,6200,7.7,10.6,15,9.9,42,805,999,187,160,617,839,410,597
81043,BUSQUE,81,81105,GRAULHET,81,43.7853548,1.948376792,23,758,285,756,495,20129,43.75765622,2.001225129,1556,5.2,7.2,13,6.6,28,302,306,53,44,249,262,106,121
81046,CADALEN,81,81004,ALBI,81,43.84304735,1.983594849,74,1503,582,1433,961,21332,43.92582136,2.146863286,8856,16.0,20.8,25,20.6,86,0,703,0,159,0,543,0,135
81048,CAGNAC-LES-MINES,81,81004,ALBI,81,43.98102063,2.11921214,165,2395,1108,2484,1717,19017,43.92582136,2.146863286,8856,6.5,7.8,17,7.6,32,850,832,138,122,712,709,436,448
81052,CAMBON,81,81004,ALBI,81,43.91182874,2.223732406,229,2125,818,2192,1424,22118,43.92582136,2.146863286,8856,6.4,8.2,15,7.1,31,919,1015,124,195,794,820,521,522
81054,CAMBOUNET-SUR-LE-SOR,81,81065,CASTRES,81,43.57760466,2.120024118,131,888,350,915,599,20764,43.61565112,2.237872316,6200,10.4,15.1,17,13.9,59,343,382,55,93,287,289,157,132
81059,CARLUS,81,81004,ALBI,81,43.88799688,2.104363096,11,677,275,688,460,22751,43.92582136,2.146863286,8856,5.4,6.1,11,7.6,34,276,298,36,24,240,274,152,174
81060,CARMAUX,81,81004,ALBI,81,44.05666673,2.166414185,1092,9542,4911,9889,7134,17742,43.92582136,2.146863286,8856,14.6,22.2,30,19.5,81,3195,2836,1476,1320,1719,1517,688,553
81060,CARMAUX,81,81033,BLAYE-LES-MINES,81,44.05666673,2.166414185,1092,9542,4911,9889,7134,17742,44.03306579,2.142789201,341,3.2,4.9,12,5.0,21,3195,2836,1476,1320,1719,1517,204,250
81063,CASTELNAU-DE-LEVIS,81,81004,ALBI,81,43.94371694,2.071100416,72,1562,586,1454,977,21362,43.92582136,2.146863286,8856,6.4,9.4,18,11.6,50,628,572,140,104,489,468,287,259
81065,CASTRES,81,31451,REVEL,31,43.61565112,2.237872316,6200,41382,18832,40809,28566,18742,43.46560378,1.996893941,1508,25.6,31.3,37,32.0,133,15139,14480,11321,10620,3817,3860,134,119
81065,CASTRES,81,31555,TOULOUSE,31,43.61565112,2.237872316,6200,41382,18832,40809,28566,18742,43.59638143,1.431672934,71878,65.0,88.1,79,80.7,333,15139,14480,11321,10620,3817,3860,252,266
81065,CASTRES,81,81289,SOUAL,81,43.61565112,2.237872316,6200,41382,18832,40809,28566,18742,43.55112503,2.128886688,354,11.3,20.3,21,16.5,74,15139,14480,11321,10620,3817,3860,222,224
81065,CASTRES,81,81140,LAVAUR,81,43.61565112,2.237872316,6200,41382,18832,40809,28566,18742,43.68956287,1.794372137,1727,36.6,41.0,42,45.2,190,15139,0,11321,0,3817,0,111,0
81065,CASTRES,81,81273,SAIX,81,43.61565112,2.237872316,6200,41382,18832,40809,28566,18742,43.58421959,2.170448471,334,6.5,10.5,14,8.8,39,15139,14480,11321,10620,3817,3860,173,161
81065,CASTRES,81,81120,LABRUGUIERE,81,43.61565112,2.237872316,6200,41382,18832,40809,28566,18742,43.50900503,2.266620075,723,12.1,20.0,25,14.8,64,15139,14480,11321,10620,3817,3860,246,373
81065,CASTRES,81,81139,LAUTREC,81,43.61565112,2.237872316,6200,41382,18832,40809,28566,18742,43.70524685,2.129294033,196,13.3,14.8,15,16.3,68,15139,14480,11321,10620,3817,3860,196,120
81065,CASTRES,81,81163,MAZAMET,81,43.61565112,2.237872316,6200,41382,18832,40809,28566,18742,43.45787803,2.388534691,1548,21.3,33.5,40,29.4,130,15139,14480,11321,10620,3817,3860,384,321
81065,CASTRES,81,81004,ALBI,81,43.61565112,2.237872316,6200,41382,18832,40809,28566,18742,43.92582136,2.146863286,8856,35.3,40.3,46,43.2,202,15139,14480,11321,10620,3817,3860,275,297
81070,COUFOULEUX,81,81220,RABASTENS,81,43.79784894,1.731584266,214,2668,1046,2798,1806,20562,43.84840409,1.714951432,409,5.8,6.8,12,6.9,28,0,1124,0,249,0,876,0,110
81070,COUFOULEUX,81,81271,SAINT-SULPICE,81,43.79784894,1.731584266,214,2668,1046,2798,1806,20562,43.75898852,1.686599978,947,5.6,7.4,12,7.3,30,959,1124,200,249,759,876,125,129
81070,COUFOULEUX,81,31555,TOULOUSE,31,43.79784894,1.731584266,214,2668,1046,2798,1806,20562,43.59638143,1.431672934,71878,32.9,48.2,38,42.4,177,959,1124,200,249,759,876,243,254
81074,CUNAC,81,81004,ALBI,81,43.92743964,2.225149745,107,1556,615,1577,1042,22120,43.92582136,2.146863286,8856,6.3,10.8,19,7.1,31,691,705,103,78,588,627,341,380
81079,DENAT,81,81004,ALBI,81,43.83953423,2.202922632,31,767,322,814,533,19611,43.92582136,2.146863286,8856,10.6,13.0,21,12.7,55,319,360,61,53,259,306,145,170
81088,FAUCH,81,81004,ALBI,81,43.83917197,2.258363506,13,520,190,501,328,19698,43.92582136,2.146863286,8856,13.1,16.4,23,15.3,63,0,252,0,44,0,207,0,118
81092,FIAC,81,81140,LAVAUR,81,43.69900793,1.909884162,80,920,382,953,632,19847,43.68956287,1.794372137,1727,9.3,11.6,17,11.4,47,0,471,0,129,0,342,0,141
81093,FLORENTIN,81,81004,ALBI,81,43.88541837,2.029858456,64,664,259,645,432,21882,43.92582136,2.146863286,8856,10.4,15.5,20,13.3,57,0,255,0,64,0,191,0,104
81097,FREJAIROLLES,81,81004,ALBI,81,43.8786601,2.230431625,70,1315,507,1368,892,21971,43.92582136,2.146863286,8856,8.5,9.6,15,10.1,43,580,665,92,90,488,575,328,405
81098,FREJEVILLE,81,81065,CASTRES,81,43.60888803,2.147393,59,633,244,674,434,20815,43.61565112,2.237872316,6200,7.3,10.5,11,10.2,44,300,273,32,44,267,230,182,123
